<?xml version="1.0" encoding="ISO-8859-9"?>
<Places>
<Place placeId="1" tffPlaceId="139" name="AKHISAR BELEDIYE" address="204. Sk Inönü Mh., 45200 Akhisar" typeId="1" photos="139_800_600_1.jpg" latitude="38.916557" longitude="27.838035" capacity="2918" city="45" country="90"/>
<Place placeId="2" tffPlaceId="85" name="BJK INONU" address="Viþnezade Mh., Süleyman Seba Cd No:48, Beþiktaþ" typeId="1" photos="85_800_600_1.jpg, 85_800_600_2.jpg" latitude="41.038797" longitude="28.993711" capacity="32086" city="34" country="90"/>
<Place placeId="3" tffPlaceId="44" name="BURSA ATATURK" address="Gaziakdemir Mh., 16190" typeId="1" photos="44_800_600_1.jpg" latitude="40.192101" longitude="29.049359" capacity="25661" city="16" country="90"/>
<Place placeId="4" tffPlaceId="66" name="ESKISEHIR ATATURK" address="Viþnelik Mh., 26010 " typeId="1" photos="66_800_600_1.jpg, 66_800_600_2.jpg" latitude="39.772303" longitude="30.514951" capacity="13520" city="26" country="90"/>
<Place placeId="5" tffPlaceId="86" name="FB SUKRU SARACOGLU" address="Zühtüpaþa Mh., 34724 Kadýköy" typeId="1" photos="86_800_600_1.jpg, 86_800_600_2.jpg, 86_800_600_3.jpg" latitude="40.987259" longitude="29.03572" capacity="50509" city="34" country="90"/>
<Place placeId="6" tffPlaceId="5018" name="ALI SAMI YEN SPOR KOMPLEKSI TURK TELEKOM ARENA" address="Yer Seyrantepe,Siþli" typeId="1" photos="5018_800_600_1.jpg, 5018_800_600_2.jpg, 5018_800_600_3.jpg" latitude="41.10321" longitude="28.991246" capacity="52600" city="34" country="90"/>
<Place placeId="7" tffPlaceId="69" name="KAMIL OCAK" address="Incili Pýnar Mh., 27090" typeId="1" photos="116_800_600_1.jpg, 116_800_600_2.jpg" latitude="37.067662" longitude="37.377677" capacity="16981" city="27" country="90"/>
<Place placeId="8" tffPlaceId="11" name="ANKARA 19 MAYIS" address="Doðanbey Mh., 06250" typeId="1" photos="11_800_600_1.jpg, 11_800_600_2.jpg" latitude="39.939744" longitude="32.844998" capacity="19209" city="6" country="90"/>
<Place placeId="9" tffPlaceId="110" name="ATATURK OLIMPIYAT" address="Ziyagökalp Mh., 34306" typeId="1" photos="110_800_600_1.jpg, 110_800_600_2.jpg" latitude="41.07374" longitude="28.768311" capacity="76092" city="34" country="90"/>
<Place placeId="10" tffPlaceId="202" name="DR.NECMETTIN SEYHOGLU" address="Fatih Cd No:17, Yeniþehir Mh., 78200" typeId="1" photos="202_800_600_1.jpg, 202_800_600_2.jpg" latitude="41.204514" longitude="32.620157" capacity="7593" city="78" country="90"/>
<Place placeId="11" tffPlaceId="103" name="RECEP TAYYIP ERDOGAN STADYUMU" address="Recep Tayyip Erdoðan Stadium, Beyoðlu" typeId="1" photos="103_800_600_1.jpg, 103_800_600_2.jpg" latitude="41.0328" longitude="28.972323" capacity="14234" city="34" country="90"/>
<Place placeId="12" tffPlaceId="3765" name="BUYUKSEHIR BELEDIYESI KADIR HAS" address="Osman Kavuncu Mh., 38060 " typeId="1" photos="3765_800_600_1.jpg" latitude="38.735969" longitude="35.423579" capacity="32864" city="38" country="90"/>
<Place placeId="13" tffPlaceId="5343" name="AKDENIZ UNIVERSITESI STADI" address="Akdeniz Unv. Pýnarbaþý Mh., 07100" typeId="1" photos="5343_800_600_1.jpg, 5343_800_600_2.jpg" latitude="36.893747" longitude="30.646812" capacity="0" city="7" country="90"/>
<Place placeId="14" tffPlaceId="81" name="TEVFIK SIRRI GUR" address="Pirireis Mh., 33110" typeId="1" photos="81_800_600_1.jpg,81_800_600_2.jpg" latitude="36.786115" longitude="34.617528" capacity="10128" city="33" country="90"/>
<Place placeId="15" tffPlaceId="153" name="19 EYLUL" address="Selimiye Mh., 52200" typeId="1" photos="153_800_600_1.jpg" latitude="40.98258" longitude="37.878107" capacity="11024" city="52" country="90"/>
<Place placeId="16" tffPlaceId="62" name="ELAZIG ATATURK" address="Atatürk Mh., 62000" typeId="1" photos="62_800_600_1.jpg" latitude="39.077663" longitude="39.536013" capacity="13923" city="23" country="90"/>
<Place placeId="17" tffPlaceId="169" name="SIVAS 4 EYLUL" address="Kadýburhanettin Mh., 58030" typeId="1" photos="169_800_600_1.jpg" latitude="39.740773" longitude="37.002494" capacity="14998" city="58" country="90"/>
<Place placeId="18" tffPlaceId="175" name="HUSEYIN AVNI AKER" address="Inönü Mh., 61040" typeId="1" photos="175_800_600_1.jpg, 175_800_600_2.jpg" latitude="41.003918" longitude="39.704385" capacity="24169" city="61" country="90"/>
<Place placeId="19" tffPlaceId="1" name="5 OCAK" address="Reþatbey Mh., 01220" typeId="1" photos="1_800_600_1.jpg, 1_800_600_2.jpg, 1_800_600_3.jpg" latitude="36.998855" longitude="35.329733" capacity="14085" city="1" country="90"/>
<Place placeId="20" tffPlaceId="42" name="BOLU ATATURK" address="Ihsaniye Mh., 14100" typeId="1" photos="42_800_600_1.jpg" latitude="40.73617" longitude="31.60692" capacity="8881" city="14" country="90"/>
<Place placeId="21" tffPlaceId="3753" name="YENI BUCA STADI" address="Vali Rahmi Bey Mh., 35380" typeId="1" photos="3753_800_600_1.jpg, 3753_800_600_2.jpg" latitude="38.384115" longitude="27.169602" capacity="8810" city="35" country="90"/>
<Place placeId="22" tffPlaceId="3809" name="YENI RIZE SEHIR" address="GUNDOGDU" typeId="1" photos="3809_800_600_1.jpg" latitude="41.0418796" longitude="40.5732393" capacity="15485" city="53" country="90"/>
<Place placeId="23" tffPlaceId="55" name="DENIZLI ATATURK" address="Kuþpýnar Mah. 20254" typeId="1" photos="55_800_600_1.jpg, 55_800_600_2.jpg" latitude="37.765985" longitude="29.082296" capacity="15427" city="20" country="90"/>
<Place placeId="24" tffPlaceId="118" name="IZMIR ATATURK" address="Mersinli Mh., 35100 Konak" typeId="1" photos="118_800_600_1.jpg, 118_800_600_2.jpg" latitude="38.433144" longitude="27.176912" capacity="51295" city="35" country="90"/>
<Place placeId="25" tffPlaceId="3619" name="ALSANCAK STADI" address="Umurbey Mh., 35230 Konak" typeId="1" photos="000156_800_600_1.jpg" latitude="38.437779" longitude="27.150392" capacity="20000" city="35" country="90"/>
<Place placeId="26" tffPlaceId="89" name="RADYO SEYMEN KARTAL STADYUMU" address="Karlýktepe Mh., 34880" typeId="1" photos="89_800_600_1.jpg" latitude="40.891942" longitude="29.190909" capacity="7195" city="34" country="90"/>
<Place placeId="27" tffPlaceId="137" name="MANISA 19 MAYIS" address="Ahmet Bedevi Mh., 45200" typeId="1" photos="137_800_600_1.jpg, 137_800_600_2.jpg" latitude="38.623291" longitude="27.438579" capacity="16597" city="45" country="90"/>
<Place placeId="28" tffPlaceId="162" name="SAMSUN 19 MAYIS" address="Yenimahalle Mh., 55080" typeId="1" photos="162_800_600_1.jpg" latitude="41.269384" longitude="36.35525" capacity="16480" city="55" country="90"/>
<Place placeId="29" tffPlaceId="3869" name="SANLIURFA GAP ARENA" address="Sancaktar Mh., 63000" typeId="1" photos="3869_800_600_1.jpg" latitude="37.147704" longitude="38.806767" capacity="28965" city="63" country="90"/>
<Place placeId="30" tffPlaceId="5342" name="TAVSANLI ILÇE" address="Saray Mh., 43000" typeId="1" photos="5343_800_600_1.jpg" latitude="39.417439" longitude="29.992138" capacity="0" city="43" country="90"/>
<Place placeId="31" tffPlaceId="473" name="BS BLD ATATURK" address="Oðretmen Evleri Mh., 42000" typeId="1" photos="473_800_600_1.jpg" latitude="37.865385" longitude="32.483264" capacity="0" city="42" country="90"/>
<Place placeId="32" tffPlaceId="143" name="12 ÞUBAT" address="MARAÞ" typeId="1" photos="143_800_600_1.jpg" latitude="41.865385" longitude="32.483264" capacity="0" city="46" country="90"/>
<Place placeId="33" tffPlaceId="70" name="GASKÝSPOR TESÝSLERÝ" address="GAZIANTEP" typeId="1" photos="70_800_600_1.jpg" latitude="41.865385" longitude="32.483264" capacity="0" city="27" country="90"/>
<Place placeId="34" tffPlaceId="176" name="AKÇAABAT FATÝH" address="TRABZON" typeId="1" photos="473_800_600_1.jpg" latitude="41.01747" longitude="39.584277" capacity="0" city="61" country="90"/>
<Place placeId="35" tffPlaceId="135" name="DUMLUPINAR" address="KÜTAHYA" typeId="1" photos="135_800_600_1.jpg" latitude="38.847805" longitude="29.970864" capacity="0" city="43" country="90"/>
<Place placeId="36" tffPlaceId="4421" name="MARDAN ANTALYASPOR" address="ANTALYA" typeId="1" photos="4421_800_600_1.jpg" latitude="36.907413" longitude="30.893866" capacity="0" city="07" country="90"/>

</Places>


